{
  "ShelterList" : [ {
    "address" : "921 Howell Mill Road, Atlanta, Georgia 30318",
    "allowed" : "Women/Children",
    "capacity" : "264",
    "latitude" : -84.410142,
    "longitude" : 33.780174,
    "name" : "My Sister's House",
    "phone" : "(404) 367-2465",
    "services" : "Temporary, Emergency, Residential Recovery"
  }, {
    "address" : "655 Ethel Street, Atlanta, Georgia 30318",
    "allowed" : "Women/Children",
    "capacity" : "140",
    "latitude" : -84.408771,
    "longitude" : 33.784889,
    "name" : "The Atlanta Day Center for Women & Children",
    "phone" : "(404) 588-4007",
    "services" : "Career Facilitation"
  }, {
    "address" : "156 Mills Street, Atlanta, Georgia 30313",
    "allowed" : "Men",
    "capacity" : "450",
    "latitude" : -84.39265,
    "longitude" : 33.765162,
    "name" : "The Shepherd's Inn",
    "phone" : "(404) 367-2493",
    "services" : "Temporary, Residential Recovery"
  }, {
    "address" : "144 Mills Street, Atlanta, Georgia 30313",
    "allowed" : "Men",
    "capacity" : "92",
    "latitude" : -84.392273,
    "longitude" : 33.76515,
    "name" : "Fuqua Hall",
    "phone" : "(404) 367-2492",
    "services" : "Transitional housing"
  }, {
    "address" : "607 Peachtree Street NE Atlanta, GA 30308",
    "allowed" : "Families w/ Children under 5",
    "capacity" : "40",
    "latitude" : -84.384433,
    "longitude" : 33.770949,
    "name" : "Atlanta's Children Center",
    "phone" : "(404) 892-3713",
    "services" : "Children's programs, early childhood education"
  }, {
    "address" : "1300 Joseph E. Boone Blvd NW, Atlanta, GA 30314",
    "allowed" : "Women/Children",
    "capacity" : "32 for families, 80 singles",
    "latitude" : -84.43023,
    "longitude" : 33.762316,
    "name" : "Eden Village ",
    "phone" : "(404)-874-2241",
    "services" : "General recovery services"
  }, {
    "address" : "173 Boulevard Northeast, Atlanta, GA 30312",
    "allowed" : "Families w/ newborns ",
    "capacity" : "76 family rooms ",
    "latitude" : -84.371706,
    "longitude" : 33.759138,
    "name" : "Our House ",
    "phone" : "(404) 522-6056",
    "services" : "Families w/ Newborns, Pre-K education"
  }, {
    "address" : "1559 Johnson Road NW, Atlanta, GA 30318",
    "allowed" : "Childrens/Young adults ",
    "capacity" : "80",
    "latitude" : -84.437988,
    "longitude" : 33.78823,
    "name" : "Covenant House Georgia ",
    "phone" : "(404)-937-6957",
    "services" : "Crisis services/Career Preparation"
  }, {
    "address" : "830 Boulevard SE, Atlanta, GA 30312",
    "allowed" : "Families ",
    "capacity" : "",
    "latitude" : -84.367953,
    "longitude" : 33.731823,
    "name" : "Nicholas House",
    "phone" : "(404)-622-0793",
    "services" : "Family services "
  }, {
    "address" : "34 Peachtree Street NW, Suite 700, Atlanta, GA 30303",
    "allowed" : "Anyone ",
    "capacity" : "22 apartments",
    "latitude" : -84.390429,
    "longitude" : 33.753594,
    "name" : "Hope Atlanta ",
    "phone" : "(404)-817-7070",
    "services" : "Emergency shelter "
  }, {
    "address" : "275 Pryor St. SW, Atlanta, GA 30303",
    "allowed" : "Men",
    "capacity" : "330",
    "latitude" : -84.394529,
    "longitude" : 33.747618,
    "name" : "Gateway Center",
    "phone" : "(404) 215-6600",
    "services" : "Shelter and recovery services "
  }, {
    "address" : "1230 Hightower Road NW Atlanta, GA 30318",
    "allowed" : "Young adults ",
    "capacity" : "12",
    "latitude" : -84.470567,
    "longitude" : 33.789157,
    "name" : "Young Adult Guidance Center ",
    "phone" : "(404) 792-7616",
    "services" : "Emergency, Independent living, Restoration "
  }, {
    "address" : "1800 Memorial Dr SE G3, Atlanta, GA 30317",
    "allowed" : "Veterans ",
    "capacity" : "",
    "latitude" : -84.328691,
    "longitude" : 33.747641,
    "name" : "Homes of Light ",
    "phone" : "(844) 289-8382",
    "services" : "Veterans "
  } ]
}